{
  "type": "FeatureCollection",
  "features": [
    {
      "type": "Feature",
      "geometry": {
        "type": "Point",
        "coordinates": [
          2.372985,
          48.845623
        ]
      },
      "properties": {
        "id": "zw01",
        "name": "ZW01 - Gare de Lyon M1",
        "exit_id": "2872283",
        "type": "zenway"
      }
    },
    {
      "type": "Feature",
      "geometry": {
        "type": "Point",
        "coordinates": [
          2.373488,
          48.843815
        ]
      },
      "properties": {
        "id": "zw02",
        "name": "ZW02 - Gare de Lyon RER A",
        "exit_id": "2872685",
        "type": "zenway"
      }
    },
    {
      "type": "Feature",
      "geometry": {
        "type": "Point",
        "coordinates": [
          2.320562,
          48.841299
        ]
      },
      "properties": {
        "id": "zw03",
        "name": "ZW03 - Montparnasse - Bienven\u00fce M4",
        "exit_id": "7034517",
        "type": "zenway"
      }
    },
    {
      "type": "Feature",
      "geometry": {
        "type": "Point",
        "coordinates": [
          2.296965,
          48.874069
        ]
      },
      "properties": {
        "id": "zw04",
        "name": "ZW04 - Charles de Gaulle - Etoile RER A",
        "exit_id": "2872557",
        "type": "zenway"
      }
    },
    {
      "type": "Feature",
      "geometry": {
        "type": "Point",
        "coordinates": [
          2.295924,
          48.874561
        ]
      },
      "properties": {
        "id": "zw05",
        "name": "ZW05 - Charles de Gaulle - Etoile M1",
        "exit_id": "2871918",
        "type": "zenway"
      }
    },
    {
      "type": "Feature",
      "geometry": {
        "type": "Point",
        "coordinates": [
          2.333432,
          48.83314
        ]
      },
      "properties": {
        "id": "zw06",
        "name": "ZW06 - Denfert Rochereau RER B",
        "exit_id": "2872614",
        "type": "zenway"
      }
    },
    {
      "type": "Feature",
      "geometry": {
        "type": "Point",
        "coordinates": [
          2.346657,
          48.862083
        ]
      },
      "properties": {
        "id": "zw07",
        "name": "ZW07 - Ch\u00e2telet - Les Halles RER A",
        "exit_id": "6428906",
        "type": "zenway"
      }
    },
    {
      "type": "Feature",
      "geometry": {
        "type": "Point",
        "coordinates": [
          2.325618,
          48.870319
        ]
      },
      "properties": {
        "id": "zw08",
        "name": "ZW08 - Madeleine M14",
        "exit_id": "2872682",
        "type": "zenway"
      }
    },
    {
      "type": "Feature",
      "geometry": {
        "type": "Point",
        "coordinates": [
          2.364742,
          48.867619
        ]
      },
      "properties": {
        "id": "zw09",
        "name": "ZW09 - R\u00e9publique M11",
        "exit_id": "14463457",
        "type": "zenway"
      }
    },
    {
      "type": "Feature",
      "geometry": {
        "type": "Point",
        "coordinates": [
          2.416612,
          48.865269
        ]
      },
      "properties": {
        "id": "zw10",
        "name": "ZW10 - Gallieni M3",
        "exit_id": "8619223",
        "type": "zenway"
      }
    },
    {
      "type": "Feature",
      "geometry": {
        "type": "Point",
        "coordinates": [
          2.323409,
          48.866203
        ]
      },
      "properties": {
        "id": "zw11",
        "name": "ZW11 - Concorde M12",
        "exit_id": "2871935",
        "type": "zenway"
      }
    },
    {
      "type": "Feature",
      "geometry": {
        "type": "Point",
        "coordinates": [
          2.28356,
          48.878941
        ]
      },
      "properties": {
        "id": "zw12",
        "name": "ZW12 - Porte Maillot M1",
        "exit_id": "2872360",
        "type": "zenway"
      }
    },
    {
      "type": "Feature",
      "geometry": {
        "type": "Point",
        "coordinates": [
          2.781849,
          48.869861
        ]
      },
      "properties": {
        "id": "zw13",
        "name": "ZW13 - Marne-la-Vall\u00e9e - Chessy RER A",
        "exit_id": "5124527",
        "type": "zenway"
      }
    },
    {
      "type": "Feature",
      "geometry": {
        "type": "Point",
        "coordinates": [
          2.356949,
          48.879417
        ]
      },
      "properties": {
        "id": "zw14",
        "name": "ZW14 - Gare du Nord M4",
        "exit_id": "2872665",
        "type": "zenway"
      }
    },
    {
      "type": "Feature",
      "geometry": {
        "type": "Point",
        "coordinates": [
          2.774137,
          48.855755
        ]
      },
      "properties": {
        "id": "zw15",
        "name": "ZW15 - Val d'Europe RER A",
        "exit_id": "5117197",
        "type": "zenway"
      }
    },
    {
      "type": "Feature",
      "geometry": {
        "type": "Point",
        "coordinates": [
          2.324503,
          48.875957
        ]
      },
      "properties": {
        "id": "zw16",
        "name": "ZW16 - Saint-Lazare M14",
        "exit_id": "2871983",
        "type": "zenway"
      }
    },
    {
      "type": "Feature",
      "geometry": {
        "type": "Point",
        "coordinates": [
          2.289001,
          48.854337
        ]
      },
      "properties": {
        "id": "zw17",
        "name": "ZW17 - Bir Hakeim M6",
        "exit_id": "2872115",
        "type": "zenway"
      }
    },
    {
      "type": "Feature",
      "geometry": {
        "type": "Point",
        "coordinates": [
          2.369057,
          48.854214
        ]
      },
      "properties": {
        "id": "zw18",
        "name": "ZW18 - Bastille M5",
        "exit_id": "14463415",
        "type": "zenway"
      }
    },
    {
      "type": "Feature",
      "geometry": {
        "type": "Point",
        "coordinates": [
          2.332387,
          48.870461
        ]
      },
      "properties": {
        "id": "zw19",
        "name": "ZW19 - Op\u00e9ra M8",
        "exit_id": "2872047",
        "type": "zenway"
      }
    },
    {
      "type": "Feature",
      "geometry": {
        "type": "Point",
        "coordinates": [
          2.24236,
          48.891758
        ]
      },
      "properties": {
        "id": "zw20",
        "name": "ZW20 - La D\u00e9fense RER A",
        "exit_id": "4991110",
        "type": "zenway"
      }
    },
    {
      "type": "Feature",
      "geometry": {
        "type": "Point",
        "coordinates": [
          2.34449,
          48.853504
        ]
      },
      "properties": {
        "id": "zw21",
        "name": "ZW21 - Saint-Michel M4",
        "exit_id": "2872169",
        "type": "zenway"
      }
    },
    {
      "type": "Feature",
      "geometry": {
        "type": "Point",
        "coordinates": [
          2.343733,
          48.871479
        ]
      },
      "properties": {
        "id": "zw22",
        "name": "ZW22 - Grands Boulevards M8",
        "exit_id": "2872162",
        "type": "zenway"
      }
    },
    {
      "type": "Feature",
      "geometry": {
        "type": "Point",
        "coordinates": [
          2.328612,
          48.873657
        ]
      },
      "properties": {
        "id": "zw23",
        "name": "ZW23 - Havre - Caumartin M3",
        "exit_id": "2872344",
        "type": "zenway"
      }
    },
    {
      "type": "Feature",
      "geometry": {
        "type": "Point",
        "coordinates": [
          2.336236,
          48.862583
        ]
      },
      "properties": {
        "id": "zw24",
        "name": "ZW24 - Palais-Royal - Mus\u00e9e du Louvre M1",
        "exit_id": "2872637",
        "type": "zenway"
      }
    },
    {
      "type": "Feature",
      "geometry": {
        "type": "Point",
        "coordinates": [
          2.307512,
          48.869999
        ]
      },
      "properties": {
        "id": "zw25",
        "name": "ZW25 - Franklin D. Roosevelt M1",
        "exit_id": "2872140",
        "type": "zenway"
      }
    },
    {
      "type": "Feature",
      "geometry": {
        "type": "Point",
        "coordinates": [
          2.28768,
          48.832016
        ]
      },
      "properties": {
        "id": "zw26",
        "name": "ZW26 - Porte de Versailles M12",
        "exit_id": "2872269",
        "type": "zenway"
      }
    },
    {
      "type": "Feature",
      "geometry": {
        "type": "Point",
        "coordinates": [
          2.30955,
          48.868481
        ]
      },
      "properties": {
        "id": "zw27",
        "name": "ZW27 - Franklin D. Roosevelt M9",
        "exit_id": "2872517",
        "type": "zenway"
      }
    },
    {
      "type": "Feature",
      "geometry": {
        "type": "Point",
        "coordinates": [
          2.288436,
          48.86303
        ]
      },
      "properties": {
        "id": "zw28",
        "name": "ZW28 - Trocad\u00e9ro M6",
        "exit_id": "2872611",
        "type": "zenway"
      }
    },
    {
      "type": "Feature",
      "geometry": {
        "type": "Point",
        "coordinates": [
          2.332929,
          48.873375
        ]
      },
      "properties": {
        "id": "zw29",
        "name": "ZW29 - Chauss\u00e9e d'Antin M7",
        "exit_id": "2872133",
        "type": "zenway"
      }
    },
    {
      "type": "Feature",
      "geometry": {
        "type": "Point",
        "coordinates": [
          2.353887,
          48.869301
        ]
      },
      "properties": {
        "id": "zw30",
        "name": "ZW30 - Strasbourg - Saint-Denis M4",
        "exit_id": "2872218",
        "type": "zenway"
      }
    },
    {
      "type": "Feature",
      "geometry": {
        "type": "Point",
        "coordinates": [
          2.386253,
          48.897358
        ]
      },
      "properties": {
        "id": "zw31",
        "name": "ZW31 - Porte de la Villette M7",
        "exit_id": "2872703",
        "type": "zenway"
      }
    },
    {
      "type": "Feature",
      "geometry": {
        "type": "Point",
        "coordinates": [
          2.237142,
          48.892487
        ]
      },
      "properties": {
        "id": "zw32",
        "name": "ZW32 - La D\u00e9fense RER A",
        "exit_id": "1870703",
        "type": "zenway"
      }
    },
    {
      "type": "Feature",
      "geometry": {
        "type": "Point",
        "coordinates": [
          2.36425,
          48.842934
        ]
      },
      "properties": {
        "id": "zw33",
        "name": "ZW33 - Gare d'Austerlitz M10",
        "exit_id": "14559687",
        "type": "zenway"
      }
    },
    {
      "type": "Feature",
      "geometry": {
        "type": "Point",
        "coordinates": [
          2.250847,
          48.888036
        ]
      },
      "properties": {
        "id": "zw34",
        "name": "ZW34 - Esplanade de La D\u00e9fense M1",
        "exit_id": "14877285",
        "type": "zenway"
      }
    },
    {
      "type": "Feature",
      "geometry": {
        "type": "Point",
        "coordinates": [
          2.35214,
          48.857052
        ]
      },
      "properties": {
        "id": "zw35",
        "name": "ZW35 - H\u00f4tel de Ville M11",
        "exit_id": "2871908",
        "type": "zenway"
      }
    },
    {
      "type": "Feature",
      "geometry": {
        "type": "Point",
        "coordinates": [
          2.355585,
          48.832169
        ]
      },
      "properties": {
        "id": "zw36",
        "name": "ZW36 - Place d'Italie M5",
        "exit_id": "14559689",
        "type": "zenway"
      }
    },
    {
      "type": "Feature",
      "geometry": {
        "type": "Point",
        "coordinates": [
          2.347138,
          48.85519
        ]
      },
      "properties": {
        "id": "zw37",
        "name": "ZW37 - Cit\u00e9 M4",
        "exit_id": "2872317",
        "type": "zenway"
      }
    },
    {
      "type": "Feature",
      "geometry": {
        "type": "Point",
        "coordinates": [
          2.314501,
          48.860916
        ]
      },
      "properties": {
        "id": "zw38",
        "name": "ZW38 - Invalides M13",
        "exit_id": "2872732",
        "type": "zenway"
      }
    },
    {
      "type": "Feature",
      "geometry": {
        "type": "Point",
        "coordinates": [
          2.34265,
          48.919323
        ]
      },
      "properties": {
        "id": "zw39",
        "name": "ZW39 - Carrefour Pleyel M13",
        "exit_id": "4958655",
        "type": "zenway"
      }
    },
    {
      "type": "Feature",
      "geometry": {
        "type": "Point",
        "coordinates": [
          2.301422,
          48.755608
        ]
      },
      "properties": {
        "id": "zw40",
        "name": "ZW40 - Antony RER B",
        "exit_id": "5134879",
        "type": "zenway"
      }
    },
    {
      "type": "Feature",
      "geometry": {
        "type": "Point",
        "coordinates": [
          2.377592,
          48.83001
        ]
      },
      "properties": {
        "id": "zw41",
        "name": "ZW41 - Biblioth\u00e8que Fran\u00e7ois Mitterand M14",
        "exit_id": "14559688",
        "type": "zenway"
      }
    },
    {
      "type": "Feature",
      "geometry": {
        "type": "Point",
        "coordinates": [
          2.440449,
          48.844547
        ]
      },
      "properties": {
        "id": "zw42",
        "name": "ZW42 - Ch\u00e2teau de Vincennes M1",
        "exit_id": "2235705",
        "type": "zenway"
      }
    },
    {
      "type": "Feature",
      "geometry": {
        "type": "Point",
        "coordinates": [
          2.344279,
          48.897636
        ]
      },
      "properties": {
        "id": "zw43",
        "name": "ZW43 - Porte de Clignancourt M4",
        "exit_id": "2871872",
        "type": "zenway"
      }
    },
    {
      "type": "Feature",
      "geometry": {
        "type": "Point",
        "coordinates": [
          2.387492,
          48.862686
        ]
      },
      "properties": {
        "id": "zw44",
        "name": "ZW44 - P\u00e8re Lachaise M2",
        "exit_id": "14463450",
        "type": "zenway"
      }
    },
    {
      "type": "Feature",
      "geometry": {
        "type": "Point",
        "coordinates": [
          2.356899,
          48.929904
        ]
      },
      "properties": {
        "id": "zw45",
        "name": "ZW45 - Saint-Denis - Porte de Paris M13",
        "exit_id": "4960627",
        "type": "zenway"
      }
    },
    {
      "type": "Feature",
      "geometry": {
        "type": "Point",
        "coordinates": [
          2.408806,
          48.847405
        ]
      },
      "properties": {
        "id": "zw46",
        "name": "ZW46 - Porte de Vincennes M1",
        "exit_id": "2872648",
        "type": "zenway"
      }
    },
    {
      "type": "Feature",
      "geometry": {
        "type": "Point",
        "coordinates": [
          2.338649,
          48.884434
        ]
      },
      "properties": {
        "id": "zw47",
        "name": "ZW47 - Abbesses M12",
        "exit_id": "2872193",
        "type": "zenway"
      }
    },
    {
      "type": "Feature",
      "geometry": {
        "type": "Point",
        "coordinates": [
          2.305976,
          48.854706
        ]
      },
      "properties": {
        "id": "zw48",
        "name": "ZW48 - Ecole Militaire M8",
        "exit_id": "2871907",
        "type": "zenway"
      }
    },
    {
      "type": "Feature",
      "geometry": {
        "type": "Point",
        "coordinates": [
          2.3674,
          48.787476
        ]
      },
      "properties": {
        "id": "zw49",
        "name": "ZW49 - Villejuif - Louis Aragon M7",
        "exit_id": "4110260",
        "type": "zenway"
      }
    },
    {
      "type": "Feature",
      "geometry": {
        "type": "Point",
        "coordinates": [
          2.292737,
          48.885624
        ]
      },
      "properties": {
        "id": "zw50",
        "name": "ZW50 - Porte de Champerret M3",
        "exit_id": "2872134",
        "type": "zenway"
      }
    },
    {
      "type": "Feature",
      "geometry": {
        "type": "Point",
        "coordinates": [
          2.359048,
          48.936623
        ]
      },
      "properties": {
        "id": "zw51",
        "name": "ZW51 - Basilique de Saint-Denis M13",
        "exit_id": "4958646",
        "type": "zenway"
      }
    },
    {
      "type": "Feature",
      "geometry": {
        "type": "Point",
        "coordinates": [
          2.354905,
          48.845947
        ]
      },
      "properties": {
        "id": "zw52",
        "name": "ZW52 - Jussieu M10",
        "exit_id": "2872036",
        "type": "zenway"
      }
    },
    {
      "type": "Feature",
      "geometry": {
        "type": "Point",
        "coordinates": [
          2.386008,
          48.83353
        ]
      },
      "properties": {
        "id": "zw53",
        "name": "ZW53 - Cour Saint-Emilion M14",
        "exit_id": "2872691",
        "type": "zenway"
      }
    },
    {
      "type": "Feature",
      "geometry": {
        "type": "Point",
        "coordinates": [
          2.231145,
          48.82914
        ]
      },
      "properties": {
        "id": "zw54",
        "name": "ZW54 - Pont de S\u00e8vres M9",
        "exit_id": "1869344",
        "type": "zenway"
      }
    },
    {
      "type": "Feature",
      "geometry": {
        "type": "Point",
        "coordinates": [
          2.314308,
          48.873764
        ]
      },
      "properties": {
        "id": "zw55",
        "name": "ZW55 - Miromesnil M9",
        "exit_id": "2872102",
        "type": "zenway"
      }
    },
    {
      "type": "Feature",
      "geometry": {
        "type": "Point",
        "coordinates": [
          2.346396,
          48.860332
        ]
      },
      "properties": {
        "id": "zw56",
        "name": "ZW56 - Ch\u00e2telet - Les Halles RER A",
        "exit_id": "2872567",
        "type": "zenway"
      }
    },
    {
      "type": "Feature",
      "geometry": {
        "type": "Point",
        "coordinates": [
          2.347719,
          48.861668
        ]
      },
      "properties": {
        "id": "zw57",
        "name": "ZW57 - Ch\u00e2telet - Les Halles RER A",
        "exit_id": "2872455",
        "type": "zenway"
      }
    },
    {
      "type": "Feature",
      "geometry": {
        "type": "Point",
        "coordinates": [
          2.330096,
          48.873272
        ]
      },
      "properties": {
        "id": "zw58",
        "name": "ZW58 - Auber RER A",
        "exit_id": "2872000",
        "type": "zenway"
      }
    },
    {
      "type": "Feature",
      "geometry": {
        "type": "Point",
        "coordinates": [
          2.340317,
          48.846794
        ]
      },
      "properties": {
        "id": "zw59",
        "name": "ZW59 - Luxembourg RER B",
        "exit_id": "2872089",
        "type": "zenway"
      }
    },
    {
      "type": "Feature",
      "geometry": {
        "type": "Point",
        "coordinates": [
          2.37992,
          48.840191
        ]
      },
      "properties": {
        "id": "zw60",
        "name": "ZW60 - Bercy M14",
        "exit_id": "2872698",
        "type": "zenway"
      }
    },
    {
      "type": "Feature",
      "geometry": {
        "type": "Point",
        "coordinates": [
          2.35214,
          48.857052
        ]
      },
      "properties": {
        "id": "zw80",
        "name": "ZW80 -Office du Tourisme et des Congr\u00e8s de Paris",
        "exit_id": "2871908",
        "type": "zenway"
      }
    }
  ]
}